[{
        "city": "Tokyo",
        "city_ascii": "Tokyo",
        "lat": 35.6897,
        "lng": 139.6922,
        "country": "Japan",
        "iso2": "JP",
        "iso3": "JPN",
        "admin_name": "Tokyo",
        "capital": "primary",
        "population": 37977000,
        "id": 1392685764
    },
    {
        "city": "Baku",
        "city_ascii": "Baku",
        "lat": 40.3667,
        "lng": 49.8352,
        "country": "Azerbaijan",
        "iso2": "AZ",
        "iso3": "AZE",
        "admin_name": "Bakı",
        "capital": "primary",
        "population": 2181800,
        "id": 1031946365
    }, {
        "city": "Samara",
        "city_ascii": "Samara",
        "lat": 53.1833,
        "lng": 50.1167,
        "country": "Russia",
        "iso2": "RU",
        "iso3": "RUS",
        "admin_name": "Samarskaya Oblast’",
        "capital": "admin",
        "population": 1169719,
        "id": 1643205757
    }, {
        "city": "Ankara",
        "city_ascii": "Ankara",
        "lat": 39.93,
        "lng": 32.85,
        "country": "Turkey",
        "iso2": "TR",
        "iso3": "TUR",
        "admin_name": "Ankara",
        "capital": "primary",
        "population": 5503985,
        "id": 1792572891
    }, {
        "city": "Houston",
        "city_ascii": "Houston",
        "lat": 29.7863,
        "lng": -95.3889,
        "country": "United States",
        "iso2": "US",
        "iso3": "USA",
        "admin_name": "Texas",
        "capital": "",
        "population": 5464251,
        "id": 1840020925
    }, {
        "city": "Moscow",
        "city_ascii": "Moscow",
        "lat": 55.7558,
        "lng": 37.6178,
        "country": "Russia",
        "iso2": "RU",
        "iso3": "RUS",
        "admin_name": "Moskva",
        "capital": "primary",
        "population": 17125000,
        "id": 1643318494
    }, {
        "city": "Sydney",
        "city_ascii": "Sydney",
        "lat": -33.865,
        "lng": 151.2094,
        "country": "Australia",
        "iso2": "AU",
        "iso3": "AUS",
        "admin_name": "New South Wales",
        "capital": "admin",
        "population": 5312163,
        "id": 1036074917
    }, {
        "city": "Sumqayittt",
        "city_ascii": "Sumqayit",
        "lat": 40.5917,
        "lng": 49.6397,
        "country": "Azerbaijan",
        "iso2": "AZ",
        "iso3": "AZE",
        "admin_name": "Sumqayit",
        "capital": "admin",
        "population": 341200,
        "id": 1031630283
    }, {
        "city": "Ganca",
        "city_ascii": "Ganca",
        "lat": 40.6828,
        "lng": 46.3606,
        "country": "Azerbaijan",
        "iso2": "AZ",
        "iso3": "AZE",
        "admin_name": "Ganca",
        "capital": "admin",
        "population": 331400,
        "id": 1031197327
    }, {
        "city": "Naxcivan",
        "city_ascii": "Naxcivan",
        "lat": 39.2092,
        "lng": 45.4122,
        "country": "Azerbaijan",
        "iso2": "AZ",
        "iso3": "AZE",
        "admin_name": "Naxçıvan",
        "capital": "admin",
        "population": 94788,
        "id": 1031943755
    }
]